cityname,latitude,longitude,temperature_j1,precipitation_j1,weathercode_j1,temperature_j2,precipitation_j2,weathercode_j2,temperature_j3,precipitation_j3,weathercode_j3,temperature_j4,precipitation_j4,weathercode_j4,temperature_j5,precipitation_j5,weathercode_j5,temperature_j6,precipitation_j6,weathercode_j6,temperature_j7,precipitation_j7,weathercode_j7,mean_temp,sum_precipitation,top_weather_code
Bayonne,43.4945144,-1.4736657,13.5,0.0,3,13.7,0.0,2,13.3,0.0,3,14.5,0.0,0,13.3,0.0,0,14.2,0.0,3,15.6,0.0,3,14.014285714285714,0.0,3
Collioure,42.52505,3.0831554,14.8,0.0,3,15.0,0.0,3,14.9,0.0,1,16.9,0.0,1,13.2,0.0,0,12.8,0.0,0,10.0,0.0,3,13.942857142857141,0.0,3
Biarritz,43.47114375,-1.552726590666314,12.7,0.0,3,13.1,0.0,2,13.2,0.0,3,14.4,0.0,0,13.0,0.0,0,13.7,0.0,3,15.2,0.0,3,13.614285714285716,0.0,3
Bormes les Mimosas,43.1506968,6.3419285,15.3,0.0,3,15.2,0.0,3,14.0,0.0,0,13.5,0.0,1,13.2,0.0,3,13.7,0.0,2,9.8,0.0,3,13.528571428571428,0.0,3
Ariege,42.9455368,1.4065544156065486,5.3,0.0,3,4.2,0.0,3,8.0,0.0,1,8.5,0.0,0,9.1,0.0,0,10.7,0.0,0,8.3,0.0,3,7.728571428571428,0.0,3
